{
"type": "FeatureCollection",
"features": [
{ "type": "Feature", "properties": { "Наименование": "InterContinental Almaty", "Адрес": "улица Желтоксан, 181", "Количество номеров": 277 }, "geometry": { "type": "Point", "coordinates": [ 76.939798, 43.235954 ] } },
{ "type": "Feature", "properties": { "Наименование": "Казахстан", "Адрес": "проспект Достык, 52/2", "Количество номеров": 250 }, "geometry": { "type": "Point", "coordinates": [ 76.9575, 43.244608 ] } },
{ "type": "Feature", "properties": { "Наименование": "Rixos Almaty", "Адрес": "проспект Сейфуллина, 506", "Количество номеров": 237 }, "geometry": { "type": "Point", "coordinates": [ 76.934544, 43.249558 ] } },
{ "type": "Feature", "properties": { "Наименование": "Swissotel Wellness Resort Alatau Almaty", "Адрес": "микрорайон Таусамалы, 50а", "Количество номеров": 222 }, "geometry": { "type": "Point", "coordinates": [ 76.812507, 43.196029 ] } },
{ "type": "Feature", "properties": { "Наименование": "Almaty", "Адрес": "улица Кабанбай батыра, 85", "Количество номеров": 201 }, "geometry": { "type": "Point", "coordinates": [ 76.944792, 43.250366 ] } },
{ "type": "Feature", "properties": { "Наименование": "Best western plus atakent park hotel", "Адрес": "улица Тимирязева, 42 к10", "Количество номеров": 199 }, "geometry": { "type": "Point", "coordinates": [ 76.904718, 43.224995 ] } },
{ "type": "Feature", "properties": { "Наименование": "Rahat Palace Hotel", "Адрес": "улица Каныша Сатпаева, 29/6", "Количество номеров": 190 }, "geometry": { "type": "Point", "coordinates": [ 76.916567, 43.2372 ] } },
{ "type": "Feature", "properties": { "Наименование": "Алан Circus", "Адрес": "проспект Абая, 50/1", "Количество номеров": 190 }, "geometry": { "type": "Point", "coordinates": [ 76.917255, 43.237958 ] } },
{ "type": "Feature", "properties": { "Наименование": "Novotel Almaty city center", "Адрес": "проспект Достык, 104а", "Количество номеров": 190 }, "geometry": { "type": "Point", "coordinates": [ 76.958317, 43.242467 ] } },
{ "type": "Feature", "properties": { "Наименование": "Shera Inn Hotel", "Адрес": "улица Кажымукана, 49", "Количество номеров": 188 }, "geometry": { "type": "Point", "coordinates": [ 76.955074, 43.225068 ] } },
{ "type": "Feature", "properties": { "Наименование": "Resident Hotel Abay ", "Адрес": "проспект Абая, 10а", "Количество номеров": 172 }, "geometry": { "type": "Point", "coordinates": [ 76.947747, 43.242052 ] } },
{ "type": "Feature", "properties": { "Наименование": "Novotel Living and ibis Almaty Jetisu", "Адрес": "проспект Абылай хана, 55", "Количество номеров": 166 }, "geometry": { "type": "Point", "coordinates": [ 76.939702, 43.262949 ] } },
{ "type": "Feature", "properties": { "Наименование": "Отрар", "Адрес": "улица Гоголя, 73", "Количество номеров": 160 }, "geometry": { "type": "Point", "coordinates": [ 76.950892, 43.26081 ] } },
{ "type": "Feature", "properties": { "Наименование": "Ramada by Wyndham Almaty", "Адрес": "улица Байтурсынова, 27/1", "Количество номеров": 141 }, "geometry": { "type": "Point", "coordinates": [ 76.923836, 43.255928 ] } },
{ "type": "Feature", "properties": { "Наименование": "Business Hotel Almaty", "Адрес": "проспект Райымбека, 298а", "Количество номеров": 118 }, "geometry": { "type": "Point", "coordinates": [ 76.876636, 43.256927 ] } },
{ "type": "Feature", "properties": { "Наименование": "Mercure Almaty city center", "Адрес": "проспект Абылай хана, 53", "Количество номеров": 117 }, "geometry": { "type": "Point", "coordinates": [ 76.939967, 43.264309 ] } },
{ "type": "Feature", "properties": { "Наименование": "Уют", "Адрес": "улица Гоголя, 127/1", "Количество номеров": 114 }, "geometry": { "type": "Point", "coordinates": [ 76.93377, 43.259783 ] } },
{ "type": "Feature", "properties": { "Наименование": "DoubleTree by Hilton Almaty", "Адрес": "улица Досмухамедова, 115", "Количество номеров": 112 }, "geometry": { "type": "Point", "coordinates": [ 76.924777, 43.242518 ] } },
{ "type": "Feature", "properties": { "Наименование": "Park Dedeman Almaty", "Адрес": "улица Тимирязева, 67а", "Количество номеров": 110 }, "geometry": { "type": "Point", "coordinates": [ 76.908934, 43.226745 ] } },
{ "type": "Feature", "properties": { "Наименование": "Sadu Hotel", "Адрес": "проспект Аль-Фараби, 128/7", "Количество номеров": 108 }, "geometry": { "type": "Point", "coordinates": [ 76.931606, 43.214284 ] } },
{ "type": "Feature", "properties": { "Наименование": "Казжол", "Адрес": "улица Гоголя, 127/1", "Количество номеров": 104 }, "geometry": { "type": "Point", "coordinates": [ 76.933715, 43.260167 ] } },
{ "type": "Feature", "properties": { "Наименование": "Золотой дракон", "Адрес": "проспект Сейфуллина, 402", "Количество номеров": 99 }, "geometry": { "type": "Point", "coordinates": [ 76.931243, 43.269054 ] } },
{ "type": "Feature", "properties": { "Наименование": "Renion Park Hotel", "Адрес": "улица Кунаева, 66", "Количество номеров": 90 }, "geometry": { "type": "Point", "coordinates": [ 76.949936, 43.261543 ] } },
{ "type": "Feature", "properties": { "Наименование": "Гулдер", "Адрес": "проспект Алтынсарина, 1/2", "Количество номеров": 90 }, "geometry": { "type": "Point", "coordinates": [ 76.85089, 43.23587 ] } },
{ "type": "Feature", "properties": { "Наименование": "Resident City Hotel", "Адрес": "улица Желтоксан, 23", "Количество номеров": 85 }, "geometry": { "type": "Point", "coordinates": [ 76.93719, 43.268853 ] } },
{ "type": "Feature", "properties": { "Наименование": "Астра", "Адрес": "улица Желтоксан, 12", "Количество номеров": 80 }, "geometry": { "type": "Point", "coordinates": [ 76.937683, 43.271993 ] } },
{ "type": "Feature", "properties": { "Наименование": "Vivaldi International Hotel", "Адрес": "улица Айманова, 208а", "Количество номеров": 75 }, "geometry": { "type": "Point", "coordinates": [ 76.898114, 43.228826 ] } },
{ "type": "Feature", "properties": { "Наименование": "Academic apartaments", "Адрес": "улица Тимирязева, 13", "Количество номеров": 75 }, "geometry": { "type": "Point", "coordinates": [ 76.933482, 43.231162 ] } },
{ "type": "Feature", "properties": { "Наименование": "Riviera", "Адрес": "3-я линия, 3Б", "Количество номеров": 74 }, "geometry": { "type": "Point", "coordinates": [ 77.094359, 43.881141 ] } },
{ "type": "Feature", "properties": { "Наименование": "Grand Hotel Tien Shan", "Адрес": "Богенбай батыра улица, 115", "Количество номеров": 73 }, "geometry": { "type": "Point", "coordinates": [ 76.949406, 43.253771 ] } },
{ "type": "Feature", "properties": { "Наименование": "Raavah Aparthotel", "Адрес": "микрорайон Жетысу-2, 69/3", "Количество номеров": 72 }, "geometry": { "type": "Point", "coordinates": [ 76.848114, 43.219375 ] } },
{ "type": "Feature", "properties": { "Наименование": "Victoria", "Адрес": "улица Сейфуллина, 12", "Количество номеров": 71 }, "geometry": { "type": "Point", "coordinates": [ 77.055323, 43.866455 ] } },
{ "type": "Feature", "properties": { "Наименование": "Аврора", "Адрес": "проспект Райымбека, 212а/7", "Количество номеров": 70 }, "geometry": { "type": "Point", "coordinates": [ 76.892551, 43.260532 ] } },
{ "type": "Feature", "properties": { "Наименование": "7 Небо", "Адрес": "улица Кабдолова, 2", "Количество номеров": 60 }, "geometry": { "type": "Point", "coordinates": [ 76.858555, 43.237902 ] } },
{ "type": "Feature", "properties": { "Наименование": "Royal Park", "Адрес": "улица Шолохова, 29/9а", "Количество номеров": 57 }, "geometry": { "type": "Point", "coordinates": [ 76.945498, 43.337195 ] } },
{ "type": "Feature", "properties": { "Наименование": "Salut Hotel Almaty", "Адрес": "микрорайон Баянауыл, 30", "Количество номеров": 56 }, "geometry": { "type": "Point", "coordinates": [ 76.820133, 43.240405 ] } },
{ "type": "Feature", "properties": { "Наименование": "Альпийская Роза", "Адрес": "микрорайон Кокшокы, 1/91", "Количество номеров": 53 }, "geometry": { "type": "Point", "coordinates": [ 76.988719, 43.07459 ] } },
{ "type": "Feature", "properties": { "Наименование": "Hotel Almarasan", "Адрес": "улица Алма-Арасан, 13а", "Количество номеров": 53 }, "geometry": { "type": "Point", "coordinates": [ 76.904084, 43.132056 ] } },
{ "type": "Feature", "properties": { "Наименование": "Aq Capsule hotel", "Адрес": "проспект Абылай хана, 55", "Количество номеров": 50 }, "geometry": { "type": "Point", "coordinates": [ 76.938985, 43.263324 ] } },
{ "type": "Feature", "properties": { "Наименование": "Khan Plaza Hotel", "Адрес": "улица Акан Серы, 165/1", "Количество номеров": 50 }, "geometry": { "type": "Point", "coordinates": [ 76.943156, 43.308449 ] } },
{ "type": "Feature", "properties": { "Наименование": "Ақсұңқар", "Адрес": "улица Закарпатская, 1Б", "Количество номеров": 47 }, "geometry": { "type": "Point", "coordinates": [ 77.010764, 43.34518 ] } },
{ "type": "Feature", "properties": { "Наименование": "Renion Hills", "Адрес": "проспект Назарбаева, 281", "Количество номеров": 46 }, "geometry": { "type": "Point", "coordinates": [ 76.953555, 43.223358 ] } },
{ "type": "Feature", "properties": { "Наименование": "Sacvoyage hotel & Soul Spa", "Адрес": "улица Сеченова, 30/8", "Количество номеров": 46 }, "geometry": { "type": "Point", "coordinates": [ 76.896534, 43.213842 ] } },
{ "type": "Feature", "properties": { "Наименование": "Zamat", "Адрес": "улица Рихарда Зорге, 2Б", "Количество номеров": 44 }, "geometry": { "type": "Point", "coordinates": [ 76.950441, 43.340074 ] } },
{ "type": "Feature", "properties": { "Наименование": "Кездесу", "Адрес": "улица Макаренко, 60", "Количество номеров": 41 }, "geometry": { "type": "Point", "coordinates": [ 76.929411, 43.290094 ] } },
{ "type": "Feature", "properties": { "Наименование": "Ми отель", "Адрес": "Ташкентский тракт, 19/2Б", "Количество номеров": 40 }, "geometry": { "type": "Point", "coordinates": [ 76.733661, 43.224914 ] } },
{ "type": "Feature", "properties": { "Наименование": "Terra", "Адрес": "улица Жандосова, 17а", "Количество номеров": 40 }, "geometry": { "type": "Point", "coordinates": [ 76.901502, 43.23309 ] } },
{ "type": "Feature", "properties": { "Наименование": "Ермин", "Адрес": "улица Северное побережье, 102", "Количество номеров": 39 }, "geometry": { "type": "Point", "coordinates": [ 77.135669, 43.896121 ] } },
{ "type": "Feature", "properties": { "Наименование": "Grand Aria Hotel ", "Адрес": "улица Акан Серы, 56", "Количество номеров": 38 }, "geometry": { "type": "Point", "coordinates": [ 76.948448, 43.323943 ] } },
{ "type": "Feature", "properties": { "Наименование": "Royal Plus Hotel", "Адрес": "улица Кабдолова, 14/2", "Количество номеров": 37 }, "geometry": { "type": "Point", "coordinates": [ 76.853263, 43.236792 ] } },
{ "type": "Feature", "properties": { "Наименование": "Алма", "Адрес": "улица Кошкунова, 4а", "Количество номеров": 36 }, "geometry": { "type": "Point", "coordinates": [ 76.961028, 43.243955 ] } },
{ "type": "Feature", "properties": { "Наименование": "Рич", "Адрес": "8-й микрорайон, 56", "Количество номеров": 36 }, "geometry": { "type": "Point", "coordinates": [ 76.872907, 43.226472 ] } },
{ "type": "Feature", "properties": { "Наименование": "Altai Business Hotel", "Адрес": "улица Толе би, 142", "Количество номеров": 35 }, "geometry": { "type": "Point", "coordinates": [ 76.910841, 43.252263 ] } },
{ "type": "Feature", "properties": { "Наименование": "Grand Eurasia Hotel", "Адрес": "улица Жолдасбекова, 9а", "Количество номеров": 35 }, "geometry": { "type": "Point", "coordinates": [ 76.955853, 43.234696 ] } },
{ "type": "Feature", "properties": { "Наименование": "City park hotel", "Адрес": "Барибаева улица, 31", "Количество номеров": 34 }, "geometry": { "type": "Point", "coordinates": [ 76.962878, 43.260707 ] } },
{ "type": "Feature", "properties": { "Наименование": "Pirate", "Адрес": "улица Толе би, 209а", "Количество номеров": 34 }, "geometry": { "type": "Point", "coordinates": [ 76.883854, 43.251034 ] } },
{ "type": "Feature", "properties": { "Наименование": "Премьер Алатау", "Адрес": "проспект Достык, 105", "Количество номеров": 33 }, "geometry": { "type": "Point", "coordinates": [ 76.960986, 43.225523 ] } },
{ "type": "Feature", "properties": { "Наименование": "Royal Petrol", "Адрес": "проспект Райымбека, 432Б", "Количество номеров": 31 }, "geometry": { "type": "Point", "coordinates": [ 76.858705, 43.252231 ] } },
{ "type": "Feature", "properties": { "Наименование": "Роза", "Адрес": "микрорайон Таугуль-1, 52а", "Количество номеров": 31 }, "geometry": { "type": "Point", "coordinates": [ 76.882287, 43.211442 ] } },
{ "type": "Feature", "properties": { "Наименование": "Hotel 33", "Адрес": "улица Осоавиахима, 33", "Количество номеров": 31 }, "geometry": { "type": "Point", "coordinates": [ 76.934408, 43.2792 ] } },
{ "type": "Feature", "properties": { "Наименование": "Aykun Hotel", "Адрес": "улица Сырмак, 10", "Количество номеров": 30 }, "geometry": { "type": "Point", "coordinates": [ 76.964286, 43.228385 ] } },
{ "type": "Feature", "properties": { "Наименование": "Ильнарус", "Адрес": "микрорайон Кокмайса, 27в", "Количество номеров": 30 }, "geometry": { "type": "Point", "coordinates": [ 76.897178, 43.304509 ] } },
{ "type": "Feature", "properties": { "Наименование": "А & G", "Адрес": "улица Сарытогай, 19", "Количество номеров": 30 }, "geometry": { "type": "Point", "coordinates": [ 76.83289, 43.25933 ] } },
{ "type": "Feature", "properties": { "Наименование": "Guest House", "Адрес": "улица Торайгырова, 21/1", "Количество номеров": 30 }, "geometry": { "type": "Point", "coordinates": [ 76.872951, 43.20267 ] } },
{ "type": "Feature", "properties": { "Наименование": "Дорожник", "Адрес": "микрорайон Кокмайса, 1а", "Количество номеров": 30 }, "geometry": { "type": "Point", "coordinates": [ 76.899719, 43.307971 ] } },
{ "type": "Feature", "properties": { "Наименование": "Grand Nur-Ai", "Адрес": "микрорайон Аксай 1А, 8/2", "Количество номеров": 30 }, "geometry": { "type": "Point", "coordinates": [ 76.826944, 43.239675 ] } },
{ "type": "Feature", "properties": { "Наименование": "7 days", "Адрес": "микрорайон Аксай-4, 67/1", "Количество номеров": 30 }, "geometry": { "type": "Point", "coordinates": [ 76.841314, 43.226817 ] } },
{ "type": "Feature", "properties": { "Наименование": "Жумбак Тас", "Адрес": "улица Кунаева, 1а/1", "Количество номеров": 30 }, "geometry": { "type": "Point", "coordinates": [ 76.825721, 43.189505 ] } },
{ "type": "Feature", "properties": { "Наименование": "Samal Resort & SPA", "Адрес": "улица Керей-Жанибек хандар, 548/1", "Количество номеров": 29 }, "geometry": { "type": "Point", "coordinates": [ 77.036782, 43.171722 ] } },
{ "type": "Feature", "properties": { "Наименование": "Жас", "Адрес": "улица Толе би, 22", "Количество номеров": 29 }, "geometry": { "type": "Point", "coordinates": [ 76.625173, 43.201306 ] } },
{ "type": "Feature", "properties": { "Наименование": "Oscar Hotel Almaty", "Адрес": "микрорайон Аксай-4, 90а", "Количество номеров": 28 }, "geometry": { "type": "Point", "coordinates": [ 76.843186, 43.229132 ] } },
{ "type": "Feature", "properties": { "Наименование": "Alpen Ville", "Адрес": "улица Санаторная, 14", "Количество номеров": 28 }, "geometry": { "type": "Point", "coordinates": [ 76.916993, 43.202487 ] } },
{ "type": "Feature", "properties": { "Наименование": "Resident Hotel Kazybek Bi", "Адрес": "улица Желтоксан, 89", "Количество номеров": 28 }, "geometry": { "type": "Point", "coordinates": [ 76.938324, 43.256606 ] } },
{ "type": "Feature", "properties": { "Наименование": "Bal-Meyir Almaty", "Адрес": "улица Кабанбай батыра, 26/1", "Количество номеров": 27 }, "geometry": { "type": "Point", "coordinates": [ 76.964395, 43.250805 ] } },
{ "type": "Feature", "properties": { "Наименование": "Aura", "Адрес": "улица Ильяса Жансугурова, 307", "Количество номеров": 27 }, "geometry": { "type": "Point", "coordinates": [ 76.930524, 43.306852 ] } },
{ "type": "Feature", "properties": { "Наименование": "Астана", "Адрес": "улица Бекмаханова, 1в", "Количество номеров": 26 }, "geometry": { "type": "Point", "coordinates": [ 76.946934, 43.354719 ] } },
{ "type": "Feature", "properties": { "Наименование": "Родник", "Адрес": "улица Воровского, 49", "Количество номеров": 26 }, "geometry": { "type": "Point", "coordinates": [ 76.951045, 43.353879 ] } },
{ "type": "Feature", "properties": { "Наименование": "Olimpica", "Адрес": "улица Санаторная, 14", "Количество номеров": 26 }, "geometry": { "type": "Point", "coordinates": [ 76.916079, 43.202823 ] } },
{ "type": "Feature", "properties": { "Наименование": "Town Rest", "Адрес": "улица Сыргабекова, 30", "Количество номеров": 26 }, "geometry": { "type": "Point", "coordinates": [ 76.912137, 43.199001 ] } },
{ "type": "Feature", "properties": { "Наименование": "Салем", "Адрес": "микрорайон Самал-1, 36", "Количество номеров": 26 }, "geometry": { "type": "Point", "coordinates": [ 76.95167, 43.235536 ] } },
{ "type": "Feature", "properties": { "Наименование": "Hotel Mountain View", "Адрес": "проспект Аль-Фараби, 156", "Количество номеров": 25 }, "geometry": { "type": "Point", "coordinates": [ 76.909397, 43.200795 ] } },
{ "type": "Feature", "properties": { "Наименование": "Resident Hotel Almaty", "Адрес": "улица Тохтарова, 100", "Количество номеров": 25 }, "geometry": { "type": "Point", "coordinates": [ 76.933167, 43.28985 ] } },
{ "type": "Feature", "properties": { "Наименование": "Строитель", "Адрес": "Саина улица, 14а", "Количество номеров": 25 }, "geometry": { "type": "Point", "coordinates": [ 76.838887, 43.242894 ] } },
{ "type": "Feature", "properties": { "Наименование": "Салем", "Адрес": "проспект Достык, 48а", "Количество номеров": 25 }, "geometry": { "type": "Point", "coordinates": [ 76.957258, 43.2467 ] } },
{ "type": "Feature", "properties": { "Наименование": "Роза", "Адрес": "проспект Райымбека, 548/2", "Количество номеров": 25 }, "geometry": { "type": "Point", "coordinates": [ 76.795235, 43.232448 ] } },
{ "type": "Feature", "properties": { "Наименование": "Evergreen Home", "Адрес": "улица Тимирязева, 59а", "Количество номеров": 25 }, "geometry": { "type": "Point", "coordinates": [ 76.911911, 43.226818 ] } },
{ "type": "Feature", "properties": { "Наименование": "Eleven Hotel & Hall", "Адрес": "улица Арайлы, 16", "Количество номеров": 25 }, "geometry": { "type": "Point", "coordinates": [ 76.930933, 43.189895 ] } },
{ "type": "Feature", "properties": { "Наименование": "Green Hotel", "Адрес": "улица Жандосова, 4Б", "Количество номеров": 25 }, "geometry": { "type": "Point", "coordinates": [ 76.823593, 43.183896 ] } },
{ "type": "Feature", "properties": { "Наименование": "Сеул Сауна", "Адрес": "улица Архат, 1", "Количество номеров": 24 }, "geometry": { "type": "Point", "coordinates": [ 76.892538, 43.160752 ] } },
{ "type": "Feature", "properties": { "Наименование": "Лейла", "Адрес": "улица Жуалы, 39", "Количество номеров": 24 }, "geometry": { "type": "Point", "coordinates": [ 76.789298, 43.232235 ] } },
{ "type": "Feature", "properties": { "Наименование": "Талгарская форель", "Адрес": "улица Абая, 1/1", "Количество номеров": 24 }, "geometry": { "type": "Point", "coordinates": [ 77.211456, 43.273259 ] } },
{ "type": "Feature", "properties": { "Наименование": "Береке", "Адрес": "проспект Райымбека, 212а/2", "Количество номеров": 24 }, "geometry": { "type": "Point", "coordinates": [ 76.890791, 43.259402 ] } },
{ "type": "Feature", "properties": { "Наименование": "Лейла", "Адрес": "улица Обозная, 16а", "Количество номеров": 24 }, "geometry": { "type": "Point", "coordinates": [ 76.933447, 43.344737 ] } },
{ "type": "Feature", "properties": { "Наименование": "Five Seasons", "Адрес": "улица Маркова, 46а", "Количество номеров": 23 }, "geometry": { "type": "Point", "coordinates": [ 76.933788, 43.228316 ] } },
{ "type": "Feature", "properties": { "Наименование": "Donatello", "Адрес": "проспект Достык, 535", "Количество номеров": 23 }, "geometry": { "type": "Point", "coordinates": [ 76.976528, 43.203931 ] } },
{ "type": "Feature", "properties": { "Наименование": "Salamat", "Адрес": "шоссе Северное Кольцо, 60а", "Количество номеров": 23 }, "geometry": { "type": "Point", "coordinates": [ 76.910769, 43.330152 ] } },
{ "type": "Feature", "properties": { "Наименование": "Ак-Алтын", "Адрес": "6-й микрорайон, 48а", "Количество номеров": 23 }, "geometry": { "type": "Point", "coordinates": [ 76.852468, 43.220044 ] } },
{ "type": "Feature", "properties": { "Наименование": "Royal Max hotel & spa", "Адрес": "Касымова улица, 32", "Количество номеров": 23 }, "geometry": { "type": "Point", "coordinates": [ 76.930698, 43.226037 ] } },
{ "type": "Feature", "properties": { "Наименование": "Raiymbek Hotel", "Адрес": "проспект Райымбека, 468", "Количество номеров": 23 }, "geometry": { "type": "Point", "coordinates": [ 76.854785, 43.251118 ] } },
{ "type": "Feature", "properties": { "Наименование": "Nomad & Aq-otay", "Адрес": "улица Бурундайская, 15", "Количество номеров": 23 }, "geometry": { "type": "Point", "coordinates": [ 76.916428, 43.347953 ] } },
{ "type": "Feature", "properties": { "Наименование": "Дос", "Адрес": "улица Наурызбай батыра, 1/1", "Количество номеров": 22 }, "geometry": { "type": "Point", "coordinates": [ 76.643002, 43.213714 ] } },
{ "type": "Feature", "properties": { "Наименование": "Жибек", "Адрес": "улица Кабардинская, 17", "Количество номеров": 22 }, "geometry": { "type": "Point", "coordinates": [ 76.937925, 43.324121 ] } },
{ "type": "Feature", "properties": { "Наименование": "Ак Булак", "Адрес": "проспект Сейфуллина, 174/2", "Количество номеров": 22 }, "geometry": { "type": "Point", "coordinates": [ 76.940052, 43.307221 ] } },
{ "type": "Feature", "properties": { "Наименование": "Welcome", "Адрес": "улица Биржан Сала, 125", "Количество номеров": 22 }, "geometry": { "type": "Point", "coordinates": [ 78.378364, 45.009465 ] } },
{ "type": "Feature", "properties": { "Наименование": "Арай", "Адрес": "проспект Сейфуллина, 209", "Количество номеров": 22 }, "geometry": { "type": "Point", "coordinates": [ 76.939483, 43.300562 ] } },
{ "type": "Feature", "properties": { "Наименование": "Moon Rooms", "Адрес": "улица Наурызбай батыра, 50", "Количество номеров": 22 }, "geometry": { "type": "Point", "coordinates": [ 76.935912, 43.260586 ] } },
{ "type": "Feature", "properties": { "Наименование": "Достар", "Адрес": "Кульджинский тракт, 5", "Количество номеров": 21 }, "geometry": { "type": "Point", "coordinates": [ 76.991945, 43.290754 ] } },
{ "type": "Feature", "properties": { "Наименование": "Shera Park Boutique Hotel", "Адрес": "проспект Назарбаева, 248/1", "Количество номеров": 21 }, "geometry": { "type": "Point", "coordinates": [ 76.954035, 43.223969 ] } },
{ "type": "Feature", "properties": { "Наименование": "Hotel City", "Адрес": "улица Сауранбаева, 1", "Количество номеров": 21 }, "geometry": { "type": "Point", "coordinates": [ 76.857537, 43.206468 ] } },
{ "type": "Feature", "properties": { "Наименование": "Grand bereke", "Адрес": "улица Шолохова, 8", "Количество номеров": 21 }, "geometry": { "type": "Point", "coordinates": [ 76.95222, 43.334104 ] } },
{ "type": "Feature", "properties": { "Наименование": "Aura", "Адрес": "проспект Сейфуллина, 49/1", "Количество номеров": 21 }, "geometry": { "type": "Point", "coordinates": [ 76.941338, 43.327937 ] } },
{ "type": "Feature", "properties": { "Наименование": "Renion Zyliha", "Адрес": "улица Байтурсынова, 104", "Количество номеров": 20 }, "geometry": { "type": "Point", "coordinates": [ 76.928277, 43.238165 ] } },
{ "type": "Feature", "properties": { "Наименование": "Beis SPA Hotel & Resort", "Адрес": "улица Аманжол, 26", "Количество номеров": 20 }, "geometry": { "type": "Point", "coordinates": [ 76.847276, 43.209504 ] } },
{ "type": "Feature", "properties": { "Наименование": "Адина", "Адрес": "микрорайон Аксай-3а, 10а/1", "Количество номеров": 20 }, "geometry": { "type": "Point", "coordinates": [ 76.828132, 43.23719 ] } },
{ "type": "Feature", "properties": { "Наименование": "Асыл", "Адрес": "улица Туркебаева, 92", "Количество номеров": 20 }, "geometry": { "type": "Point", "coordinates": [ 76.878963, 43.249532 ] } },
{ "type": "Feature", "properties": { "Наименование": "Nauryz", "Адрес": "проспект Райымбека, 542", "Количество номеров": 20 }, "geometry": { "type": "Point", "coordinates": [ 76.808062, 43.237149 ] } },
{ "type": "Feature", "properties": { "Наименование": "Medeu`s villa", "Адрес": "улица Керей-Жанибек хандар, 243а", "Количество номеров": 20 }, "geometry": { "type": "Point", "coordinates": [ 77.011685, 43.179059 ] } },
{ "type": "Feature", "properties": { "Наименование": "Mardin Hotel", "Адрес": "улица Жайсан, 1а/1", "Количество номеров": 20 }, "geometry": { "type": "Point", "coordinates": [ 76.934468, 43.353292 ] } },
{ "type": "Feature", "properties": { "Наименование": "Dami", "Адрес": "улица Искендерова, 25", "Количество номеров": 20 }, "geometry": { "type": "Point", "coordinates": [ 76.951828, 43.217746 ] } },
{ "type": "Feature", "properties": { "Наименование": "Жетысу", "Адрес": "улица Аэродромная, 91а", "Количество номеров": 20 }, "geometry": { "type": "Point", "coordinates": [ 76.866268, 43.356341 ] } },
{ "type": "Feature", "properties": { "Наименование": "Kolsay hotel", "Адрес": "улица Ултаракова, 1/1", "Количество номеров": 20 }, "geometry": { "type": "Point", "coordinates": [ 78.412837, 43.069185 ] } },
{ "type": "Feature", "properties": { "Наименование": "Ажар", "Адрес": "Е. Брусиловского улица, 96", "Количество номеров": 19 }, "geometry": { "type": "Point", "coordinates": [ 76.877016, 43.248094 ] } },
{ "type": "Feature", "properties": { "Наименование": "Жибек Жолы", "Адрес": "улица Ашимова, 13а", "Количество номеров": 19 }, "geometry": { "type": "Point", "coordinates": [ 76.801004, 43.225938 ] } },
{ "type": "Feature", "properties": { "Наименование": "Rabat hotel", "Адрес": "улица Казыбек би, 139 к2", "Количество номеров": 19 }, "geometry": { "type": "Point", "coordinates": [ 76.919192, 43.254946 ] } },
{ "type": "Feature", "properties": { "Наименование": "Residence Jeppesen Hotel", "Адрес": "проспект Гагарина, 206в", "Количество номеров": 19 }, "geometry": { "type": "Point", "coordinates": [ 76.897861, 43.221039 ] } },
{ "type": "Feature", "properties": { "Наименование": "Afrin", "Адрес": "улица Бекмаханова, 56а", "Количество номеров": 19 }, "geometry": { "type": "Point", "coordinates": [ 76.958281, 43.351985 ] } },
{ "type": "Feature", "properties": { "Наименование": "Гостиница", "Адрес": "улица Заводская, 46", "Количество номеров": 19 }, "geometry": { "type": "Point", "coordinates": [ 76.91721, 43.341275 ] } },
{ "type": "Feature", "properties": { "Наименование": "Maximum", "Адрес": "улица Катаева, 190", "Количество номеров": 19 }, "geometry": { "type": "Point", "coordinates": [ 76.893179, 43.225515 ] } },
{ "type": "Feature", "properties": { "Наименование": "Достар", "Адрес": "улица Бартольда, 46", "Количество номеров": 19 }, "geometry": { "type": "Point", "coordinates": [ 76.95902, 43.350301 ] } },
{ "type": "Feature", "properties": { "Наименование": "Kuze", "Адрес": "улица Тынышбаева, 3", "Количество номеров": 19 }, "geometry": { "type": "Point", "coordinates": [ 76.949536, 43.339289 ] } },
{ "type": "Feature", "properties": { "Наименование": "City Rooms", "Адрес": "улица Масанчи, 26", "Количество номеров": 18 }, "geometry": { "type": "Point", "coordinates": [ 76.928956, 43.256739 ] } },
{ "type": "Feature", "properties": { "Наименование": "Гостиница ", "Адрес": "улица Жансугурова, 80а", "Количество номеров": 18 }, "geometry": { "type": "Point", "coordinates": [ 77.026892, 43.430642 ] } },
{ "type": "Feature", "properties": { "Наименование": "Тройка", "Адрес": "улица Беимбетова, 25а", "Количество номеров": 18 }, "geometry": { "type": "Point", "coordinates": [ 76.976396, 43.287537 ] } },
{ "type": "Feature", "properties": { "Наименование": "Азат", "Адрес": "улица Молдагалиева, 2", "Количество номеров": 18 }, "geometry": { "type": "Point", "coordinates": [ 76.954977, 43.33041 ] } },
{ "type": "Feature", "properties": { "Наименование": "Таугуль", "Адрес": "микрорайон Таугуль-1, 82/1", "Количество номеров": 18 }, "geometry": { "type": "Point", "coordinates": [ 76.876232, 43.213355 ] } },
{ "type": "Feature", "properties": { "Наименование": "Gres hotel", "Адрес": "улица Жансугурова, 78", "Количество номеров": 18 }, "geometry": { "type": "Point", "coordinates": [ 77.028357, 43.434066 ] } },
{ "type": "Feature", "properties": { "Наименование": "Bal-Meyir", "Адрес": "улица Ильяса Жансугурова, 219", "Количество номеров": 18 }, "geometry": { "type": "Point", "coordinates": [ 76.932717, 43.297051 ] } },
{ "type": "Feature", "properties": { "Наименование": "Ак Тас", "Адрес": "территория ущелье Ой-Карагай, 225/3", "Количество номеров": 18 }, "geometry": { "type": "Point", "coordinates": [ 77.149343, 43.22627 ] } },
{ "type": "Feature", "properties": { "Наименование": "Railway Hotel Almaty", "Адрес": "улица Станционная, 11", "Количество номеров": 18 }, "geometry": { "type": "Point", "coordinates": [ 76.945563, 43.342108 ] } },
{ "type": "Feature", "properties": { "Наименование": "Panorama", "Адрес": "улица Навои, 58", "Количество номеров": 18 }, "geometry": { "type": "Point", "coordinates": [ 76.881858, 43.216679 ] } },
{ "type": "Feature", "properties": { "Наименование": "Iris", "Адрес": "проспект Назарбаева, 176", "Количество номеров": 18 }, "geometry": { "type": "Point", "coordinates": [ 76.94884, 43.240807 ] } },
{ "type": "Feature", "properties": { "Наименование": "Фаэтон", "Адрес": "шоссе Северное Кольцо, 186", "Количество номеров": 18 }, "geometry": { "type": "Point", "coordinates": [ 76.919616, 43.34226 ] } },
{ "type": "Feature", "properties": { "Наименование": "8 континент", "Адрес": "улица Толе би, 271/1", "Количество номеров": 18 }, "geometry": { "type": "Point", "coordinates": [ 76.868804, 43.249517 ] } },
{ "type": "Feature", "properties": { "Наименование": "Pioneer", "Адрес": "улица Алма Тау, 27", "Количество номеров": 18 }, "geometry": { "type": "Point", "coordinates": [ 77.129953, 43.193758 ] } },
{ "type": "Feature", "properties": { "Наименование": "Салем", "Адрес": "проспект Абая, 157а", "Количество номеров": 18 }, "geometry": { "type": "Point", "coordinates": [ 76.891039, 43.239026 ] } },
{ "type": "Feature", "properties": { "Наименование": "Кок Тобе", "Адрес": "Луганского улица, 54 к2", "Количество номеров": 17 }, "geometry": { "type": "Point", "coordinates": [ 76.963952, 43.235829 ] } },
{ "type": "Feature", "properties": { "Наименование": "Green Hill Hotel ", "Адрес": "улица Найманбаева, 31", "Количество номеров": 17 }, "geometry": { "type": "Point", "coordinates": [ 76.974347, 43.220156 ] } },
{ "type": "Feature", "properties": { "Наименование": "Рим Grand Hotel", "Адрес": "улица Шоссейная, 15/2", "Количество номеров": 17 }, "geometry": { "type": "Point", "coordinates": [ 76.917664, 43.339054 ] } },
{ "type": "Feature", "properties": { "Наименование": "Torekulov Hotel", "Адрес": "проспект Сейфуллина, 410", "Количество номеров": 17 }, "geometry": { "type": "Point", "coordinates": [ 76.931824, 43.265471 ] } },
{ "type": "Feature", "properties": { "Наименование": "Edelweiss", "Адрес": "улица Алтын Орда, 3", "Количество номеров": 17 }, "geometry": { "type": "Point", "coordinates": [ 76.769595, 43.228787 ] } },
{ "type": "Feature", "properties": { "Наименование": "Visit", "Адрес": "улица Утеген батыра, 24", "Количество номеров": 17 }, "geometry": { "type": "Point", "coordinates": [ 76.854351, 43.249837 ] } },
{ "type": "Feature", "properties": { "Наименование": "Тау Талгар", "Адрес": "улица Алматы, 26", "Количество номеров": 17 }, "geometry": { "type": "Point", "coordinates": [ 77.333021, 43.284645 ] } },
{ "type": "Feature", "properties": { "Наименование": "Коркем", "Адрес": "проспект Райымбека, 484Б", "Количество номеров": 17 }, "geometry": { "type": "Point", "coordinates": [ 76.848488, 43.249525 ] } },
{ "type": "Feature", "properties": { "Наименование": "224", "Адрес": "улица Тлендиева, 224", "Количество номеров": 17 }, "geometry": { "type": "Point", "coordinates": [ 76.875537, 43.237122 ] } },
{ "type": "Feature", "properties": { "Наименование": "Рахат", "Адрес": "шоссе Северное Кольцо, 60в", "Количество номеров": 17 }, "geometry": { "type": "Point", "coordinates": [ 76.912177, 43.331716 ] } },
{ "type": "Feature", "properties": { "Наименование": "Марьям", "Адрес": "микрорайон Айнабулак 4, 171", "Количество номеров": 17 }, "geometry": { "type": "Point", "coordinates": [ 76.914163, 43.324336 ] } },
{ "type": "Feature", "properties": { "Наименование": "Картал", "Адрес": "улица Толе би, 272а", "Количество номеров": 17 }, "geometry": { "type": "Point", "coordinates": [ 76.873088, 43.248864 ] } },
{ "type": "Feature", "properties": { "Наименование": "Qazaq Auyl Hotel", "Адрес": "улица Керей-Жанибек хандар, 586", "Количество номеров": 16 }, "geometry": { "type": "Point", "coordinates": [ 77.059865, 43.162588 ] } },
{ "type": "Feature", "properties": { "Наименование": "Салем", "Адрес": "микрорайон Аксай-3а, 89", "Количество номеров": 16 }, "geometry": { "type": "Point", "coordinates": [ 76.82682, 43.238061 ] } },
{ "type": "Feature", "properties": { "Наименование": "Kaier hotel ", "Адрес": "улица Айтиева, 31", "Количество номеров": 16 }, "geometry": { "type": "Point", "coordinates": [ 76.904947, 43.247744 ] } },
{ "type": "Feature", "properties": { "Наименование": "Байтерек", "Адрес": "улица Ерубаева, 28", "Количество номеров": 16 }, "geometry": { "type": "Point", "coordinates": [ 76.861079, 43.158254 ] } },
{ "type": "Feature", "properties": { "Наименование": "Жайлы", "Адрес": "проспект Райымбека, 206Б", "Количество номеров": 16 }, "geometry": { "type": "Point", "coordinates": [ 76.899413, 43.262874 ] } },
{ "type": "Feature", "properties": { "Наименование": "Атамекен", "Адрес": "улица Рыскулова, 173", "Количество номеров": 16 }, "geometry": { "type": "Point", "coordinates": [ 77.244881, 43.315956 ] } },
{ "type": "Feature", "properties": { "Наименование": "Радуга", "Адрес": "микрорайон Аксай-4, 60", "Количество номеров": 16 }, "geometry": { "type": "Point", "coordinates": [ 76.838757, 43.226566 ] } },
{ "type": "Feature", "properties": { "Наименование": "Hotel Marso", "Адрес": "улица Карасай батыра, 193Б", "Количество номеров": 16 }, "geometry": { "type": "Point", "coordinates": [ 76.899261, 43.248771 ] } },
{ "type": "Feature", "properties": { "Наименование": "Акжол", "Адрес": "улица Наркескен, 100/1", "Количество номеров": 16 }, "geometry": { "type": "Point", "coordinates": [ 76.907383, 43.326757 ] } },
{ "type": "Feature", "properties": { "Наименование": "ТетАтет", "Адрес": "улица Геологов, 1а/1", "Количество номеров": 16 }, "geometry": { "type": "Point", "coordinates": [ 76.926129, 43.351805 ] } },
{ "type": "Feature", "properties": { "Наименование": "MilSura", "Адрес": "шоссе Северное Кольцо, 57а", "Количество номеров": 16 }, "geometry": { "type": "Point", "coordinates": [ 76.933129, 43.352197 ] } },
{ "type": "Feature", "properties": { "Наименование": "Deluxe Park Z hotel", "Адрес": "проспект Назарбаева, 248/1", "Количество номеров": 15 }, "geometry": { "type": "Point", "coordinates": [ 76.954035, 43.223969 ] } },
{ "type": "Feature", "properties": { "Наименование": "У Розы", "Адрес": "улица Самен батыра, 108Б", "Количество номеров": 15 }, "geometry": { "type": "Point", "coordinates": [ 77.017769, 43.409333 ] } },
{ "type": "Feature", "properties": { "Наименование": "Mansion Hotel Arman", "Адрес": "улица Сарытогай, 31", "Количество номеров": 15 }, "geometry": { "type": "Point", "coordinates": [ 76.832365, 43.260376 ] } },
{ "type": "Feature", "properties": { "Наименование": "Саудабай", "Адрес": "территория Промзона, 3/1", "Количество номеров": 15 }, "geometry": { "type": "Point", "coordinates": [ 77.01517, 43.45625 ] } },
{ "type": "Feature", "properties": { "Наименование": "Достар", "Адрес": "улица Жубанова, 3а", "Количество номеров": 15 }, "geometry": { "type": "Point", "coordinates": [ 76.856861, 43.236439 ] } },
{ "type": "Feature", "properties": { "Наименование": "Гостиница", "Адрес": "улица Головацкого, 51", "Количество номеров": 15 }, "geometry": { "type": "Point", "coordinates": [ 76.890876, 43.296601 ] } },
{ "type": "Feature", "properties": { "Наименование": "Алтын", "Адрес": "улица Аркабая, 282", "Количество номеров": 15 }, "geometry": { "type": "Point", "coordinates": [ 77.04486, 43.510036 ] } },
{ "type": "Feature", "properties": { "Наименование": "Сая", "Адрес": "проспект Назарбаева, 135", "Количество номеров": 15 }, "geometry": { "type": "Point", "coordinates": [ 76.946688, 43.251369 ] } },
{ "type": "Feature", "properties": { "Наименование": "Mildom Hotel", "Адрес": "улица Наурызбай батыра, 122", "Количество номеров": 15 }, "geometry": { "type": "Point", "coordinates": [ 76.937867, 43.246975 ] } },
{ "type": "Feature", "properties": { "Наименование": "Freedom", "Адрес": "улица Кожамкулова, 179", "Количество номеров": 15 }, "geometry": { "type": "Point", "coordinates": [ 76.916094, 43.254147 ] } },
{ "type": "Feature", "properties": { "Наименование": "City Rooms", "Адрес": "улица Пестковского, 41", "Количество номеров": 15 }, "geometry": { "type": "Point", "coordinates": [ 76.957486, 43.275117 ] } },
{ "type": "Feature", "properties": { "Наименование": "N_life", "Адрес": "улица Зайсан, 142/30", "Количество номеров": 15 }, "geometry": { "type": "Point", "coordinates": [ 77.078339, 43.855756 ] } },
{ "type": "Feature", "properties": { "Наименование": "Северное Кольцо", "Адрес": "Айнабулак 1-й микрорайон, 12/5", "Количество номеров": 15 }, "geometry": { "type": "Point", "coordinates": [ 76.906568, 43.322967 ] } },
{ "type": "Feature", "properties": { "Наименование": "Арман", "Адрес": "Махамбет Отемисулы улица, 132", "Количество номеров": 14 }, "geometry": { "type": "Point", "coordinates": [ 76.865248, 43.307019 ] } },
{ "type": "Feature", "properties": { "Наименование": "Hotel 7", "Адрес": "6-я линия, 2", "Количество номеров": 14 }, "geometry": { "type": "Point", "coordinates": [ 77.096044, 43.882368 ] } },
{ "type": "Feature", "properties": { "Наименование": "Удача", "Адрес": "микрорайон Алтын Бесик, 170", "Количество номеров": 14 }, "geometry": { "type": "Point", "coordinates": [ 76.820495, 43.235009 ] } },
{ "type": "Feature", "properties": { "Наименование": "Или", "Адрес": "улица Талант, 30а", "Количество номеров": 14 }, "geometry": { "type": "Point", "coordinates": [ 76.919483, 43.354176 ] } },
{ "type": "Feature", "properties": { "Наименование": "Сункар", "Адрес": "улица Алма-Арасан, 7", "Количество номеров": 14 }, "geometry": { "type": "Point", "coordinates": [ 76.905122, 43.127871 ] } },
{ "type": "Feature", "properties": { "Наименование": "Randevu", "Адрес": "шоссе Северное Кольцо, 70в", "Количество номеров": 14 }, "geometry": { "type": "Point", "coordinates": [ 76.919736, 43.342871 ] } },
{ "type": "Feature", "properties": { "Наименование": "Bond", "Адрес": "улица Сухамбаева, 1/1", "Количество номеров": 14 }, "geometry": { "type": "Point", "coordinates": [ 76.819473, 43.242174 ] } },
{ "type": "Feature", "properties": { "Наименование": "Нур", "Адрес": "улица Алматинская, 115", "Количество номеров": 14 }, "geometry": { "type": "Point", "coordinates": [ 76.909785, 43.40115 ] } },
{ "type": "Feature", "properties": { "Наименование": "Bond Hotel", "Адрес": "улица Сухамбаева, 1/3", "Количество номеров": 14 }, "geometry": { "type": "Point", "coordinates": [ 76.819446, 43.242508 ] } },
{ "type": "Feature", "properties": { "Наименование": "City Rooms", "Адрес": "улица Желтоксан, 1Б", "Количество номеров": 14 }, "geometry": { "type": "Point", "coordinates": [ 76.937058, 43.273317 ] } },
{ "type": "Feature", "properties": { "Наименование": "Homeway", "Адрес": "улица Аршалы, 60/8", "Количество номеров": 14 }, "geometry": { "type": "Point", "coordinates": [ 76.867471, 43.276799 ] } },
{ "type": "Feature", "properties": { "Наименование": "Форт", "Адрес": "улица Карасай батыра, 35а/1", "Количество номеров": 14 }, "geometry": { "type": "Point", "coordinates": [ 76.619348, 43.200412 ] } },
{ "type": "Feature", "properties": { "Наименование": "Rassal Palace", "Адрес": "микрорайон Аксай 2, 39а", "Количество номеров": 14 }, "geometry": { "type": "Point", "coordinates": [ 76.833581, 43.233553 ] } },
{ "type": "Feature", "properties": { "Наименование": "Deluxe Akbulak", "Адрес": "улица Еспаева, 93/1", "Количество номеров": 14 }, "geometry": { "type": "Point", "coordinates": [ 76.828107, 43.258092 ] } },
{ "type": "Feature", "properties": { "Наименование": "Sarbaz", "Адрес": "улица Алма-Арасан, 4а", "Количество номеров": 14 }, "geometry": { "type": "Point", "coordinates": [ 76.90804, 43.126381 ] } },
{ "type": "Feature", "properties": { "Наименование": "Гулистан", "Адрес": "Айнабулак 2 микрорайон, 42в", "Количество номеров": 14 }, "geometry": { "type": "Point", "coordinates": [ 76.91456, 43.314827 ] } },
{ "type": "Feature", "properties": { "Наименование": "Shymbulak Medeu", "Адрес": "улица Керей-Жанибек хандар, 558/1Б", "Количество номеров": 13 }, "geometry": { "type": "Point", "coordinates": [ 77.049035, 43.162659 ] } },
{ "type": "Feature", "properties": { "Наименование": "Manara", "Адрес": "шоссе Северное Кольцо, 32в", "Количество номеров": 13 }, "geometry": { "type": "Point", "coordinates": [ 76.899061, 43.311558 ] } },
{ "type": "Feature", "properties": { "Наименование": "ASIA Hotel", "Адрес": "улица Гоголя, 176 к 1", "Количество номеров": 13 }, "geometry": { "type": "Point", "coordinates": [ 76.908331, 43.257135 ] } },
{ "type": "Feature", "properties": { "Наименование": "Park House", "Адрес": "проспект Нурсултана Назарбаева, 35а", "Количество номеров": 13 }, "geometry": { "type": "Point", "coordinates": [ 78.389648, 45.01744 ] } },
{ "type": "Feature", "properties": { "Наименование": "Гостиница", "Адрес": "улица Карасай батыра, 2а", "Количество номеров": 13 }, "geometry": { "type": "Point", "coordinates": [ 76.627563, 43.199373 ] } },
{ "type": "Feature", "properties": { "Наименование": "Laguna", "Адрес": "Саина улица, 18Б", "Количество номеров": 13 }, "geometry": { "type": "Point", "coordinates": [ 76.841103, 43.238453 ] } },
{ "type": "Feature", "properties": { "Наименование": "City Stay Apart Hotel Almaty", "Адрес": "улица Елебекова, 16а", "Количество номеров": 13 }, "geometry": { "type": "Point", "coordinates": [ 76.963787, 43.227488 ] } },
{ "type": "Feature", "properties": { "Наименование": "Hotel T", "Адрес": "улица Жамбыла, 135", "Количество номеров": 13 }, "geometry": { "type": "Point", "coordinates": [ 76.918864, 43.246481 ] } },
{ "type": "Feature", "properties": { "Наименование": "Ajour", "Адрес": "микрорайон Аксай-4, 96а", "Количество номеров": 13 }, "geometry": { "type": "Point", "coordinates": [ 76.841475, 43.229172 ] } },
{ "type": "Feature", "properties": { "Наименование": "Маргарита", "Адрес": "микрорайон Аксай-4, 88а", "Количество номеров": 13 }, "geometry": { "type": "Point", "coordinates": [ 76.843398, 43.228901 ] } },
{ "type": "Feature", "properties": { "Наименование": "Rahat", "Адрес": "улица Муратбаева, 2", "Количество номеров": 13 }, "geometry": { "type": "Point", "coordinates": [ 78.270594, 43.590694 ] } },
{ "type": "Feature", "properties": { "Наименование": "Ақжолтай", "Адрес": "улица Жусанды, 1а", "Количество номеров": 13 }, "geometry": { "type": "Point", "coordinates": [ 76.8708, 43.26744 ] } },
{ "type": "Feature", "properties": { "Наименование": "Транзит", "Адрес": "улица Станционная, 1", "Количество номеров": 13 }, "geometry": { "type": "Point", "coordinates": [ 76.948852, 43.340915 ] } },
{ "type": "Feature", "properties": { "Наименование": "City Rooms", "Адрес": "Богенбай батыра улица, 156а дом", "Количество номеров": 12 }, "geometry": { "type": "Point", "coordinates": [ 76.932431, 43.251156 ] } },
{ "type": "Feature", "properties": { "Наименование": "Apart hotel by parmigiano group", "Адрес": "проспект Аль-Фараби, 116/20", "Количество номеров": 12 }, "geometry": { "type": "Point", "coordinates": [ 76.940294, 43.21478 ] } },
{ "type": "Feature", "properties": { "Наименование": "Алмас", "Адрес": "улица Наурызбай батыра, 10а", "Количество номеров": 12 }, "geometry": { "type": "Point", "coordinates": [ 76.641271, 43.211396 ] } },
{ "type": "Feature", "properties": { "Наименование": "Double BB", "Адрес": "микрорайон Хан-Тенгри, 207", "Количество номеров": 12 }, "geometry": { "type": "Point", "coordinates": [ 76.900675, 43.144429 ] } },
{ "type": "Feature", "properties": { "Наименование": "Keremet", "Адрес": "улица Армянская, 7а", "Количество номеров": 12 }, "geometry": { "type": "Point", "coordinates": [ 76.962506, 43.230805 ] } },
{ "type": "Feature", "properties": { "Наименование": "Саулет", "Адрес": "проспект Назарбаева, 187", "Количество номеров": 12 }, "geometry": { "type": "Point", "coordinates": [ 76.948248, 43.240834 ] } },
{ "type": "Feature", "properties": { "Наименование": "Rise Tokio Hotel ", "Адрес": "улица Паримбетова, 32", "Количество номеров": 12 }, "geometry": { "type": "Point", "coordinates": [ 76.850007, 43.201558 ] } },
{ "type": "Feature", "properties": { "Наименование": "Yessenov Hotel ", "Адрес": "улица Есенова, 13а", "Количество номеров": 12 }, "geometry": { "type": "Point", "coordinates": [ 76.954074, 43.266991 ] } },
{ "type": "Feature", "properties": { "Наименование": "Berkana", "Адрес": "улица Айтеке би, 83", "Количество номеров": 12 }, "geometry": { "type": "Point", "coordinates": [ 76.936669, 43.257852 ] } },
{ "type": "Feature", "properties": { "Наименование": "Macintosh", "Адрес": "улица Наурызбай батыра, 88", "Количество номеров": 12 }, "geometry": { "type": "Point", "coordinates": [ 76.63446, 43.202563 ] } },
{ "type": "Feature", "properties": { "Наименование": "Гостиница", "Адрес": "улица Кузьмина, 29", "Количество номеров": 12 }, "geometry": { "type": "Point", "coordinates": [ 76.932481, 43.321736 ] } },
{ "type": "Feature", "properties": { "Наименование": "Samal-2 Hotel", "Адрес": "микрорайон Самал-2, 39", "Количество номеров": 12 }, "geometry": { "type": "Point", "coordinates": [ 76.953952, 43.230603 ] } },
{ "type": "Feature", "properties": { "Наименование": "Раул", "Адрес": "улица Кассина, 33", "Количество номеров": 12 }, "geometry": { "type": "Point", "coordinates": [ 76.93572, 43.321885 ] } },
{ "type": "Feature", "properties": { "Наименование": "Хан-Тенгри", "Адрес": "улица Наурызбай батыра, 5а", "Количество номеров": 12 }, "geometry": { "type": "Point", "coordinates": [ 76.640526, 43.209879 ] } },
{ "type": "Feature", "properties": { "Наименование": "Palacio", "Адрес": "микрорайон Айнабулак 3, 161а", "Количество номеров": 12 }, "geometry": { "type": "Point", "coordinates": [ 76.920418, 43.327998 ] } },
{ "type": "Feature", "properties": { "Наименование": "Football Land", "Адрес": "улица Акан Серы, 156", "Количество номеров": 12 }, "geometry": { "type": "Point", "coordinates": [ 76.946216, 43.308922 ] } },
{ "type": "Feature", "properties": { "Наименование": "Береке", "Адрес": "Кульджинский тракт, 1а", "Количество номеров": 12 }, "geometry": { "type": "Point", "coordinates": [ 77.06889, 43.355333 ] } },
{ "type": "Feature", "properties": { "Наименование": "Гостиница", "Адрес": "улица Керуентау, 2/1", "Количество номеров": 11 }, "geometry": { "type": "Point", "coordinates": [ 76.841251, 43.197858 ] } },
{ "type": "Feature", "properties": { "Наименование": "Асем", "Адрес": "улица Кунаева, 7/1", "Количество номеров": 11 }, "geometry": { "type": "Point", "coordinates": [ 77.056751, 43.844358 ] } },
{ "type": "Feature", "properties": { "Наименование": "Эдем", "Адрес": "микрорайон 3-й, 7а", "Количество номеров": 11 }, "geometry": { "type": "Point", "coordinates": [ 76.848937, 43.224287 ] } },
{ "type": "Feature", "properties": { "Наименование": "Жетiсу", "Адрес": "улица Бокейханова, 514/1", "Количество номеров": 11 }, "geometry": { "type": "Point", "coordinates": [ 76.89702, 43.301351 ] } },
{ "type": "Feature", "properties": { "Наименование": "А & G", "Адрес": "проспект Назарбаева, 51", "Количество номеров": 11 }, "geometry": { "type": "Point", "coordinates": [ 76.944785, 43.266505 ] } },
{ "type": "Feature", "properties": { "Наименование": "Khan", "Адрес": "улица Жамакаева, 151а", "Количество номеров": 11 }, "geometry": { "type": "Point", "coordinates": [ 76.953205, 43.212923 ] } },
{ "type": "Feature", "properties": { "Наименование": "Mansuri", "Адрес": "микрорайон Жулдыз-2, 55/2", "Количество номеров": 11 }, "geometry": { "type": "Point", "coordinates": [ 76.989024, 43.359649 ] } },
{ "type": "Feature", "properties": { "Наименование": "Apartamenty Almaty1", "Адрес": "улица Ержанова, 109", "Количество номеров": 11 }, "geometry": { "type": "Point", "coordinates": [ 76.938008, 43.338241 ] } },
{ "type": "Feature", "properties": { "Наименование": "Канаш", "Адрес": "микрорайон Айнабулак 4, 172", "Количество номеров": 11 }, "geometry": { "type": "Point", "coordinates": [ 76.914538, 43.322448 ] } },
{ "type": "Feature", "properties": { "Наименование": "Хан", "Адрес": "улица Алтынкол, 1а", "Количество номеров": 10 }, "geometry": { "type": "Point", "coordinates": [ 76.804382, 43.244685 ] } },
{ "type": "Feature", "properties": { "Наименование": "Monaco Hotel", "Адрес": "улица Сейфуллина, 16Б", "Количество номеров": 10 }, "geometry": { "type": "Point", "coordinates": [ 77.058827, 43.866692 ] } },
{ "type": "Feature", "properties": { "Наименование": "Гостиница", "Адрес": "улица Жансугурова, 1а", "Количество номеров": 10 }, "geometry": { "type": "Point", "coordinates": [ 77.023355, 43.421543 ] } },
{ "type": "Feature", "properties": { "Наименование": "Raim.Park.Hotel", "Адрес": "улица Шолохова, 30", "Количество номеров": 10 }, "geometry": { "type": "Point", "coordinates": [ 76.940881, 43.337437 ] } },
{ "type": "Feature", "properties": { "Наименование": "Тифлисъ", "Адрес": "улица Акан Серы, 103", "Количество номеров": 10 }, "geometry": { "type": "Point", "coordinates": [ 76.944186, 43.317981 ] } },
{ "type": "Feature", "properties": { "Наименование": "Little Shangri-La", "Адрес": "улица Успенского, 4/2", "Количество номеров": 10 }, "geometry": { "type": "Point", "coordinates": [ 76.937296, 43.292513 ] } },
{ "type": "Feature", "properties": { "Наименование": "Сагишка", "Адрес": "микрорайон Аксай-4, 90", "Количество номеров": 10 }, "geometry": { "type": "Point", "coordinates": [ 76.842649, 43.229014 ] } },
{ "type": "Feature", "properties": { "Наименование": "Имерети", "Адрес": "улица Акан Серы, 44", "Количество номеров": 10 }, "geometry": { "type": "Point", "coordinates": [ 76.949173, 43.325333 ] } },
{ "type": "Feature", "properties": { "Наименование": "Aura", "Адрес": "улица Фурката, 348/6", "Количество номеров": 10 }, "geometry": { "type": "Point", "coordinates": [ 76.859116, 43.250567 ] } },
{ "type": "Feature", "properties": { "Наименование": "Жан ", "Адрес": "улица Бокейханова, 115", "Количество номеров": 10 }, "geometry": { "type": "Point", "coordinates": [ 76.901407, 43.290341 ] } },
{ "type": "Feature", "properties": { "Наименование": "Sat Hotel", "Адрес": "микрорайон Аксай-3Б, 32", "Количество номеров": 10 }, "geometry": { "type": "Point", "coordinates": [ 76.820291, 43.236442 ] } },
{ "type": "Feature", "properties": { "Наименование": "Zhailjau", "Адрес": "микрорайон Мирас, 188/2", "Количество номеров": 10 }, "geometry": { "type": "Point", "coordinates": [ 76.876049, 43.182234 ] } },
{ "type": "Feature", "properties": { "Наименование": "Фелис", "Адрес": "улица Райымбек батыра, 152", "Количество номеров": 10 }, "geometry": { "type": "Point", "coordinates": [ 77.018057, 43.292529 ] } },
{ "type": "Feature", "properties": { "Наименование": "Grand Family Hotel", "Адрес": "4-й микрорайон, 10/2", "Количество номеров": 10 }, "geometry": { "type": "Point", "coordinates": [ 76.859218, 43.224957 ] } },
{ "type": "Feature", "properties": { "Наименование": "The first", "Адрес": "улица Байтурсынова, 65а", "Количество номеров": 10 }, "geometry": { "type": "Point", "coordinates": [ 76.92605, 43.248805 ] } },
{ "type": "Feature", "properties": { "Наименование": "RD group ", "Адрес": "улица Ворошилова, 19", "Количество номеров": 10 }, "geometry": { "type": "Point", "coordinates": [ 76.954899, 43.346164 ] } },
{ "type": "Feature", "properties": { "Наименование": "Южный", "Адрес": "улица Жамбыла, 5/1", "Количество номеров": 10 }, "geometry": { "type": "Point", "coordinates": [ 77.054733, 43.854987 ] } },
{ "type": "Feature", "properties": { "Наименование": "HI hotel", "Адрес": "проспект Достык, 162 к6", "Количество номеров": 9 }, "geometry": { "type": "Point", "coordinates": [ 76.959969, 43.234258 ] } },
{ "type": "Feature", "properties": { "Наименование": "Rise", "Адрес": "улица Розыбакиева, 233", "Количество номеров": 9 }, "geometry": { "type": "Point", "coordinates": [ 76.893637, 43.205875 ] } },
{ "type": "Feature", "properties": { "Наименование": "TauHouse", "Адрес": "улица Ултаракова, 42", "Количество номеров": 9 }, "geometry": { "type": "Point", "coordinates": [ 78.409366, 43.069093 ] } },
{ "type": "Feature", "properties": { "Наименование": "Apart Hotel Loft", "Адрес": "улица Навои, 208/8", "Количество номеров": 9 }, "geometry": { "type": "Point", "coordinates": [ 76.88758, 43.204942 ] } },
{ "type": "Feature", "properties": { "Наименование": "Империя", "Адрес": "улица Шолохова, 18а", "Количество номеров": 9 }, "geometry": { "type": "Point", "coordinates": [ 76.950568, 43.334743 ] } },
{ "type": "Feature", "properties": { "Наименование": "Tamark", "Адрес": "улица Мельникайте, 33", "Количество номеров": 9 }, "geometry": { "type": "Point", "coordinates": [ 76.879048, 43.20335 ] } },
{ "type": "Feature", "properties": { "Наименование": "Шырын", "Адрес": "улица Алатау, 12", "Количество номеров": 9 }, "geometry": { "type": "Point", "coordinates": [ 76.860328, 43.370918 ] } },
{ "type": "Feature", "properties": { "Наименование": "Almarent Apart hotel", "Адрес": "улица Казыбек би, 139 к1", "Количество номеров": 9 }, "geometry": { "type": "Point", "coordinates": [ 76.919562, 43.255192 ] } },
{ "type": "Feature", "properties": { "Наименование": "Mini ", "Адрес": "улица Жумабаева, 208Б", "Количество номеров": 9 }, "geometry": { "type": "Point", "coordinates": [ 76.921481, 43.315911 ] } },
{ "type": "Feature", "properties": { "Наименование": "ДАЛИ", "Адрес": "улица Бийская, 9", "Количество номеров": 9 }, "geometry": { "type": "Point", "coordinates": [ 76.944792, 43.280919 ] } },
{ "type": "Feature", "properties": { "Наименование": "Звездочка", "Адрес": "улица Майлина, 30", "Количество номеров": 9 }, "geometry": { "type": "Point", "coordinates": [ 77.008499, 43.344494 ] } },
{ "type": "Feature", "properties": { "Наименование": "Jibek Joly Hotel", "Адрес": "улица Уалиханова, 43а", "Количество номеров": 9 }, "geometry": { "type": "Point", "coordinates": [ 76.950533, 43.263086 ] } },
{ "type": "Feature", "properties": { "Наименование": "Hotel Lion Almaty", "Адрес": "улица Акан Серы, 51", "Количество номеров": 8 }, "geometry": { "type": "Point", "coordinates": [ 76.947718, 43.324169 ] } },
{ "type": "Feature", "properties": { "Наименование": "Белая ночь", "Адрес": "проспект Сейфуллина, 63", "Количество номеров": 8 }, "geometry": { "type": "Point", "coordinates": [ 76.938915, 43.322672 ] } },
{ "type": "Feature", "properties": { "Наименование": "Atlas Hotel", "Адрес": "микрорайон 3-й, 19/1", "Количество номеров": 8 }, "geometry": { "type": "Point", "coordinates": [ 76.851949, 43.222307 ] } },
{ "type": "Feature", "properties": { "Наименование": "Alma City", "Адрес": "улица Айтеке би, 100", "Количество номеров": 8 }, "geometry": { "type": "Point", "coordinates": [ 76.932959, 43.257285 ] } },
{ "type": "Feature", "properties": { "Наименование": "Алма-Ата", "Адрес": "улица Алтын Адам, 140е", "Количество номеров": 8 }, "geometry": { "type": "Point", "coordinates": [ 77.429169, 43.371325 ] } },
{ "type": "Feature", "properties": { "Наименование": "Бахар", "Адрес": "улица Павлодарская, 9/1", "Количество номеров": 8 }, "geometry": { "type": "Point", "coordinates": [ 76.925631, 43.345894 ] } },
{ "type": "Feature", "properties": { "Наименование": "ViaRa", "Адрес": "улица Тажибаевой, 145", "Количество номеров": 8 }, "geometry": { "type": "Point", "coordinates": [ 76.890565, 43.215663 ] } },
{ "type": "Feature", "properties": { "Наименование": "Каратал", "Адрес": "4-й микрорайон, 30/1", "Количество номеров": 8 }, "geometry": { "type": "Point", "coordinates": [ 77.054262, 43.850769 ] } },
{ "type": "Feature", "properties": { "Наименование": "Гостиница", "Адрес": "Кульджинский тракт, 70/2", "Количество номеров": 7 }, "geometry": { "type": "Point", "coordinates": [ 77.017125, 43.309414 ] } },
{ "type": "Feature", "properties": { "Наименование": "Людмила", "Адрес": "улица Шолохова, 18", "Количество номеров": 7 }, "geometry": { "type": "Point", "coordinates": [ 76.950421, 43.334832 ] } },
{ "type": "Feature", "properties": { "Наименование": "Avangard", "Адрес": "улица Азербаева, 3а", "Количество номеров": 7 }, "geometry": { "type": "Point", "coordinates": [ 76.852171, 43.367627 ] } },
{ "type": "Feature", "properties": { "Наименование": "Тазсарай", "Адрес": null, "Количество номеров": 7 }, "geometry": { "type": "Point", "coordinates": [ 76.642575, 43.366421 ] } },
{ "type": "Feature", "properties": { "Наименование": "Три звезды", "Адрес": "улица Клары Цеткин, 74а", "Количество номеров": 7 }, "geometry": { "type": "Point", "coordinates": [ 76.954334, 43.356736 ] } },
{ "type": "Feature", "properties": { "Наименование": "Фарт", "Адрес": "улица Мурманская, 52", "Количество номеров": 7 }, "geometry": { "type": "Point", "coordinates": [ 76.930256, 43.288822 ] } },
{ "type": "Feature", "properties": { "Наименование": "Нур", "Адрес": "проспект Сейфуллина, 43", "Количество номеров": 7 }, "geometry": { "type": "Point", "coordinates": [ 76.942355, 43.329445 ] } },
{ "type": "Feature", "properties": { "Наименование": "Nomad", "Адрес": "19-й микрорайон, 4", "Количество номеров": 7 }, "geometry": { "type": "Point", "coordinates": [ 77.068676, 43.870121 ] } },
{ "type": "Feature", "properties": { "Наименование": "Гостиница ", "Адрес": "Гибадуллы Мырзагалиева улица, 50", "Количество номеров": 7 }, "geometry": { "type": "Point", "coordinates": [ 76.859914, 43.199428 ] } },
{ "type": "Feature", "properties": { "Наименование": "А & G", "Адрес": "проспект Абылай хана, 37", "Количество номеров": 7 }, "geometry": { "type": "Point", "coordinates": [ 76.939025, 43.268438 ] } },
{ "type": "Feature", "properties": { "Наименование": "Д`Рами", "Адрес": "проспект Абылай хана, 123", "Количество номеров": 7 }, "geometry": { "type": "Point", "coordinates": [ 76.941844, 43.248328 ] } },
{ "type": "Feature", "properties": { "Наименование": "Margo", "Адрес": "улица Вольная, 2а", "Количество номеров": 7 }, "geometry": { "type": "Point", "coordinates": [ 76.929135, 43.269682 ] } },
{ "type": "Feature", "properties": { "Наименование": "Тонус", "Адрес": "улица Гагарина, 26а", "Количество номеров": 7 }, "geometry": { "type": "Point", "coordinates": [ 76.862884, 43.352713 ] } },
{ "type": "Feature", "properties": { "Наименование": "Almaty-City", "Адрес": "улица Ришата и Муслима Абдуллиных, 55", "Количество номеров": 7 }, "geometry": { "type": "Point", "coordinates": [ 76.95989, 43.256746 ] } },
{ "type": "Feature", "properties": { "Наименование": "Daisez Hotel", "Адрес": "улица Максима Зверева, 6а", "Количество номеров": 7 }, "geometry": { "type": "Point", "coordinates": [ 76.964053, 43.253502 ] } },
{ "type": "Feature", "properties": { "Наименование": "Астория", "Адрес": "улица Ришата и Муслима Абдуллиных, 55", "Количество номеров": 7 }, "geometry": { "type": "Point", "coordinates": [ 76.95989, 43.256746 ] } },
{ "type": "Feature", "properties": { "Наименование": "Navoi Hotel", "Адрес": "улица Навои, 7", "Количество номеров": 7 }, "geometry": { "type": "Point", "coordinates": [ 76.880269, 43.218298 ] } },
{ "type": "Feature", "properties": { "Наименование": "Gagarin Park Halal Apartments", "Адрес": "проспект Гагарина, 287/2", "Количество номеров": 7 }, "geometry": { "type": "Point", "coordinates": [ 76.897821, 43.204271 ] } },
{ "type": "Feature", "properties": { "Наименование": "Апарт-отель", "Адрес": "4-й микрорайон, 2", "Количество номеров": 6 }, "geometry": { "type": "Point", "coordinates": [ 77.055114, 43.855267 ] } },
{ "type": "Feature", "properties": { "Наименование": "Золотая лагуна", "Адрес": "улица Аймауытова, 1", "Количество номеров": 6 }, "geometry": { "type": "Point", "coordinates": [ 76.95412, 43.328168 ] } },
{ "type": "Feature", "properties": { "Наименование": "Сытый папа", "Адрес": "улица Шухова, 2/1", "Количество номеров": 6 }, "geometry": { "type": "Point", "coordinates": [ 76.981988, 43.279296 ] } },
{ "type": "Feature", "properties": { "Наименование": "Gold", "Адрес": "улица Досмухамедова, 55", "Количество номеров": 6 }, "geometry": { "type": "Point", "coordinates": [ 76.923695, 43.252821 ] } },
{ "type": "Feature", "properties": { "Наименование": "Gold", "Адрес": "улица Циолковского, 7", "Количество номеров": 6 }, "geometry": { "type": "Point", "coordinates": [ 76.868526, 43.25693 ] } },
{ "type": "Feature", "properties": { "Наименование": "Apart hotel Colibri", "Адрес": "улица Водная, 25", "Количество номеров": 6 }, "geometry": { "type": "Point", "coordinates": [ 76.969947, 43.25292 ] } },
{ "type": "Feature", "properties": { "Наименование": "Fort beer", "Адрес": "улица Абая, 45", "Количество номеров": 6 }, "geometry": { "type": "Point", "coordinates": [ 76.619688, 43.202762 ] } },
{ "type": "Feature", "properties": { "Наименование": "Family Hotel", "Адрес": "улица Байтурсынова, 1а", "Количество номеров": 6 }, "geometry": { "type": "Point", "coordinates": [ 76.924259, 43.262399 ] } },
{ "type": "Feature", "properties": { "Наименование": "R.Street", "Адрес": "улица Радостовца, 267", "Количество номеров": 6 }, "geometry": { "type": "Point", "coordinates": [ 76.894965, 43.21592 ] } },
{ "type": "Feature", "properties": { "Наименование": "Мимино", "Адрес": "улица Бекмаханова, 42/1", "Количество номеров": 6 }, "geometry": { "type": "Point", "coordinates": [ 76.95596, 43.352856 ] } },
{ "type": "Feature", "properties": { "Наименование": "Узынагаш", "Адрес": "улица Абая, 58а", "Количество номеров": 6 }, "geometry": { "type": "Point", "coordinates": [ 76.312042, 43.22114 ] } },
{ "type": "Feature", "properties": { "Наименование": "Мимино", "Адрес": "улица Бекмаханова, 42", "Количество номеров": 6 }, "geometry": { "type": "Point", "coordinates": [ 76.95589, 43.352689 ] } },
{ "type": "Feature", "properties": { "Наименование": "Алматы сити", "Адрес": "улица Желтоксан, 132", "Количество номеров": 6 }, "geometry": { "type": "Point", "coordinates": [ 76.940358, 43.251399 ] } },
{ "type": "Feature", "properties": { "Наименование": "Или", "Адрес": "улица Жамбыла, 5а", "Количество номеров": 6 }, "geometry": { "type": "Point", "coordinates": [ 77.054246, 43.855222 ] } },
{ "type": "Feature", "properties": { "Наименование": "D`ALI", "Адрес": "улица Нахимова, 11/1", "Количество номеров": 6 }, "geometry": { "type": "Point", "coordinates": [ 76.925498, 43.23267 ] } },
{ "type": "Feature", "properties": { "Наименование": "Гостиница", "Адрес": "улица Абая, 45а", "Количество номеров": 5 }, "geometry": { "type": "Point", "coordinates": [ 76.619669, 43.202497 ] } },
{ "type": "Feature", "properties": { "Наименование": "Asaapart.kz", "Адрес": "микрорайон Аксай-5, 25 к6", "Количество номеров": 5 }, "geometry": { "type": "Point", "coordinates": [ 76.831203, 43.232109 ] } },
{ "type": "Feature", "properties": { "Наименование": "Гостиница", "Адрес": "улица Талант, 8а", "Количество номеров": 5 }, "geometry": { "type": "Point", "coordinates": [ 76.924185, 43.352201 ] } },
{ "type": "Feature", "properties": { "Наименование": "Alem Hotel & Hostel ", "Адрес": "Махамбет Отемисулы улица, 67", "Количество номеров": 5 }, "geometry": { "type": "Point", "coordinates": [ 76.863878, 43.289135 ] } },
{ "type": "Feature", "properties": { "Наименование": "Ерсултан", "Адрес": "микрорайон Кокмайса, 57Б", "Количество номеров": 5 }, "geometry": { "type": "Point", "coordinates": [ 76.900431, 43.303991 ] } },
{ "type": "Feature", "properties": { "Наименование": "Central", "Адрес": "улица Айтеке би, 100", "Количество номеров": 5 }, "geometry": { "type": "Point", "coordinates": [ 76.933163, 43.257299 ] } },
{ "type": "Feature", "properties": { "Наименование": "Оазис", "Адрес": "Жибек жолы улица, 1д", "Количество номеров": 5 }, "geometry": { "type": "Point", "coordinates": [ 77.114069, 43.306344 ] } },
{ "type": "Feature", "properties": { "Наименование": "City House", "Адрес": "улица Пестковского, 41", "Количество номеров": 5 }, "geometry": { "type": "Point", "coordinates": [ 76.957486, 43.275117 ] } },
{ "type": "Feature", "properties": { "Наименование": "Достык", "Адрес": "улица Садвакасова, 2", "Количество номеров": 5 }, "geometry": { "type": "Point", "coordinates": [ 76.829738, 43.233454 ] } },
{ "type": "Feature", "properties": { "Наименование": "Apart comfort", "Адрес": "микрорайон Таугуль-2, 37а", "Количество номеров": 5 }, "geometry": { "type": "Point", "coordinates": [ 76.881974, 43.209405 ] } },
{ "type": "Feature", "properties": { "Наименование": "Asaapart.kz", "Адрес": "улица Навои, 323", "Количество номеров": 5 }, "geometry": { "type": "Point", "coordinates": [ 76.889263, 43.197626 ] } },
{ "type": "Feature", "properties": { "Наименование": "Гостиница", "Адрес": "улица Бекмаханова, 82", "Количество номеров": 5 }, "geometry": { "type": "Point", "coordinates": [ 76.961838, 43.350829 ] } },
{ "type": "Feature", "properties": { "Наименование": "Dream Hotel", "Адрес": "Луганского улица, 1 мод4", "Количество номеров": 5 }, "geometry": { "type": "Point", "coordinates": [ 76.960404, 43.241008 ] } },
{ "type": "Feature", "properties": { "Наименование": "Баян", "Адрес": "улица Ауэзовой, 13", "Количество номеров": 4 }, "geometry": { "type": "Point", "coordinates": [ 76.906985, 43.326143 ] } },
{ "type": "Feature", "properties": { "Наименование": "Эдельвейс", "Адрес": "улица Азербаева, 57а", "Количество номеров": 4 }, "geometry": { "type": "Point", "coordinates": [ 76.850984, 43.357604 ] } },
{ "type": "Feature", "properties": { "Наименование": "555", "Адрес": "улица Кунаева, 23/3", "Количество номеров": 4 }, "geometry": { "type": "Point", "coordinates": [ 77.051563, 43.843325 ] } },
{ "type": "Feature", "properties": { "Наименование": "Акбулак", "Адрес": "улица Рустемова, 13а", "Количество номеров": 4 }, "geometry": { "type": "Point", "coordinates": [ 76.832069, 43.258034 ] } },
{ "type": "Feature", "properties": { "Наименование": "Гостиница", "Адрес": "трасса Алматы-Хоргос, 25/9", "Количество номеров": 4 }, "geometry": { "type": "Point", "coordinates": [ 77.252321, 43.460157 ] } },
{ "type": "Feature", "properties": { "Наименование": "BT City Hotel", "Адрес": "проспект Достык, 296", "Количество номеров": 4 }, "geometry": { "type": "Point", "coordinates": [ 76.965505, 43.215475 ] } },
{ "type": "Feature", "properties": { "Наименование": "Asaapart.kz", "Адрес": "улица Байтурсынова, 179 блок 3", "Количество номеров": 4 }, "geometry": { "type": "Point", "coordinates": [ 76.934826, 43.230615 ] } },
{ "type": "Feature", "properties": { "Наименование": "Hot House", "Адрес": "улица Аль-Фараби, 30", "Количество номеров": 4 }, "geometry": { "type": "Point", "coordinates": [ 77.241473, 43.299508 ] } },
{ "type": "Feature", "properties": { "Наименование": "Акжол", "Адрес": "улица Наркескен, 100/1", "Количество номеров": 4 }, "geometry": { "type": "Point", "coordinates": [ 76.907292, 43.326934 ] } },
{ "type": "Feature", "properties": { "Наименование": "Комплекс", "Адрес": "улица Барыс, 46а", "Количество номеров": 4 }, "geometry": { "type": "Point", "coordinates": [ 76.847064, 43.347078 ] } },
{ "type": "Feature", "properties": { "Наименование": "Аксайская", "Адрес": "улица Жандосова, 1а", "Количество номеров": 3 }, "geometry": { "type": "Point", "coordinates": [ 76.814917, 43.181886 ] } },
{ "type": "Feature", "properties": { "Наименование": "Asaapart.kz", "Адрес": "улица Розыбакиева, 293", "Количество номеров": 3 }, "geometry": { "type": "Point", "coordinates": [ 76.892594, 43.19582 ] } },
{ "type": "Feature", "properties": { "Наименование": "Чили", "Адрес": "улица Юго-Западное побережье, 20а", "Количество номеров": 2 }, "geometry": { "type": "Point", "coordinates": [ 77.102756, 43.905772 ] } }
]
}
